[
    
    {
        
        "lat": 42.35787954,
        "lon": -71.053859273,
        "wikidata": "Q105754756",
        "label": "Cantone&#39;s",
        "streetAddress": "69 Broad Street, Boston, MA 02109",
        "dissolutionYear": ""
    }
    
    ,{
        
        "lat": 42.31941,
        "lon": -72.63806,
        "wikidata": "Q105835961",
        "label": "John M. Greene Hall",
        "streetAddress": "60 Elm Street, Northampton, MA 01063",
        "dissolutionYear": ""
    }
    
    ,{
        
        "lat": 42.39711,
        "lon": -71.12284,
        "wikidata": "Q105884072",
        "label": "Johnny D&#39;s Uptown",
        "streetAddress": "17 Holland Street, Somerville, MA 02144",
        "dissolutionYear": "2016"
    }
    
    ,{
        
        "lat": 42.353563751,
        "lon": -71.132327349,
        "wikidata": "Q105884208",
        "label": "Johnny D&#39;s",
        "streetAddress": "85 Harvard Ave, Boston, MA 02134",
        "dissolutionYear": "1986"
    }
    
    ,{
        
        "lat": 42.364601687,
        "lon": -71.062598008,
        "wikidata": "Q105884897",
        "label": "Chet&#39;s Last Call",
        "streetAddress": "65 Causeway St, Boston, MA 02114",
        "dissolutionYear": "1987"
    }
    
    ,{
        
        "lat": 42.351000301,
        "lon": -71.131150857,
        "wikidata": "Q106929772",
        "label": "Bunratty&#39;s",
        "streetAddress": "186 Harvard Avenue",
        "dissolutionYear": "1990"
    }
    
    ,{
        
        "lat": 42.518800437,
        "lon": -70.894083228,
        "wikidata": "Q106929847",
        "label": "Dodge Street Bar &amp; Grill",
        "streetAddress": "7 Dodge Street Salem, MA 01970",
        "dissolutionYear": "2014"
    }
    
    ,{
        
        "lat": 42.342510429,
        "lon": -71.099493537,
        "wikidata": "Q106929909",
        "label": "Church of Boston",
        "streetAddress": "69 Kilmarnock St, Boston, MA 02215",
        "dissolutionYear": "2015"
    }
    
    ,{
        
        "lat": 42.363233845,
        "lon": -71.098894053,
        "wikidata": "Q106929994",
        "label": "All Asia",
        "streetAddress": "334 Massachusetts Ave Cambridge, MA 02139",
        "dissolutionYear": "2013"
    }
    
    ,{
        
        "lat": 42.347552584,
        "lon": -71.095781517,
        "wikidata": "Q106930012",
        "label": "Avalon",
        "streetAddress": "15 Lansdowne Street, Boston, MA 02215",
        "dissolutionYear": "2007"
    }
    
    ,{
        
        "lat": 42.347554284,
        "lon": -71.095543059,
        "wikidata": "Q106930079",
        "label": "Axis",
        "streetAddress": "13 Lansdowne St, Boston, MA 02215",
        "dissolutionYear": "2007"
    }
    
    ,{
        
        "lat": 42.347503743,
        "lon": -71.094950215,
        "wikidata": "Q106930254",
        "label": "Bill&#39;s Bar",
        "streetAddress": "5 Lansdowne St, Boston, MA 02215",
        "dissolutionYear": ""
    }
    
    ,{
        
        "lat": 42.350272205,
        "lon": -71.130642388,
        "wikidata": "Q106930314",
        "label": "Great Scott",
        "streetAddress": "1222 Commonwealth Avenue, Allston, MA 02134",
        "dissolutionYear": "2020"
    }
    
    ,{
        
        "lat": 42.351000301,
        "lon": -71.131150857,
        "wikidata": "Q106930351",
        "label": "Local 186",
        "streetAddress": "186 Harvard Avenue",
        "dissolutionYear": "1995"
    }
    
    ,{
        
        "lat": 42.347229485,
        "lon": -71.096176286,
        "wikidata": "Q106930359",
        "label": "Mama Kin Music Hall",
        "streetAddress": "36 Lansdowne Street, Boston, MA 02215",
        "dissolutionYear": "1999"
    }
    
    ,{
        
        "lat": 42.364710223,
        "lon": -71.061838588,
        "wikidata": "Q106930372",
        "label": "McGann&#39;s Irish Pub",
        "streetAddress": "197 Portland Street Boston, MA 02215",
        "dissolutionYear": ""
    }
    
    ,{
        
        "lat": 42.3421933,
        "lon": -71.1012544,
        "wikidata": "Q106940802",
        "label": "Jumpin&#39; Jack Flash",
        "streetAddress": "88 Queensbury Street, Boston MA",
        "dissolutionYear": ""
    }
    
    ,{
        
        "lat": 42.3492578,
        "lon": -71.0987837,
        "wikidata": "Q106940822",
        "label": "Narcissus",
        "streetAddress": "533 Commonwealth Ave, Boston MA",
        "dissolutionYear": ""
    }
    
    ,{
        
        "lat": 42.3552238,
        "lon": -71.1351049,
        "wikidata": "Q106940841",
        "label": "O&#39;Brien&#39;s Pub",
        "streetAddress": "3 Harvard Avenue, Allston MA",
        "dissolutionYear": ""
    }
    
    ,{
        
        "lat": 42.349472665,
        "lon": -71.080266913,
        "wikidata": "Q107149622",
        "label": "Jazz Workshop",
        "streetAddress": "733 Boylston Street Boston, MA 02116",
        "dissolutionYear": "1978"
    }
    
    ,{
        
        "lat": 42.37992,
        "lon": -71.09502,
        "wikidata": "Q107815199",
        "label": "The Jungle",
        "streetAddress": "6 Sanborn Ct, Somerville, MA 02143",
        "dissolutionYear": ""
    }
    
    ,{
        
        "lat": 42.3739,
        "lon": -71.12,
        "wikidata": "Q1103056",
        "label": "Club Passim",
        "streetAddress": "47 Palmer St, Cambridge, MA 02138",
        "dissolutionYear": ""
    }
    
    ,{
        
        "lat": 41.943998328,
        "lon": -69.985155303,
        "wikidata": "Q111823859",
        "label": "Beachcomber",
        "streetAddress": "1120 Cahoon Hollow Rd, Wellfleet, MA 02667",
        "dissolutionYear": ""
    }
    
    ,{
        
        "lat": 42.351200831,
        "lon": -71.069931698,
        "wikidata": "Q111823860",
        "label": "Boston Park Plaza Hotel and Towers",
        "streetAddress": "50 Park Plaza, Boston, MA 02116",
        "dissolutionYear": ""
    }
    
    ,{
        
        "lat": 42.374259817,
        "lon": -71.100197665,
        "wikidata": "Q111823861",
        "label": "Cantares",
        "streetAddress": "15 Springfield St., Cambridge, MA 02139",
        "dissolutionYear": ""
    }
    
    ,{
        
        "lat": 42.389045474,
        "lon": -71.120040561,
        "wikidata": "Q111823862",
        "label": "Christopher&#39;s",
        "streetAddress": "1920 Massachusetts Ave, Cambridge, MA 02140",
        "dissolutionYear": "2020"
    }
    
    ,{
        
        "lat": 42.34736494,
        "lon": -71.095740643,
        "wikidata": "Q111823863",
        "label": "Citi",
        "streetAddress": "15 Lansdowne St, Boston, MA 02215",
        "dissolutionYear": ""
    }
    
    ,{
        
        "lat": 42.359877032,
        "lon": -71.055817208,
        "wikidata": "Q111823864",
        "label": "Cityside",
        "streetAddress": "262 Faneuil Hall Marketplace",
        "dissolutionYear": ""
    }
    
    ,{
        
        "lat": 42.387828159,
        "lon": -71.118315411,
        "wikidata": "Q111823865",
        "label": "Club III",
        "streetAddress": "808 Somerville Ave., Cambridge, MA 02140",
        "dissolutionYear": ""
    }
    
    ,{
        
        "lat": 42.362335053,
        "lon": -71.081745595,
        "wikidata": "Q111823866",
        "label": "Club M",
        "streetAddress": "137 Main St, Cambridge, MA 02142",
        "dissolutionYear": ""
    }
    
    ,{
        
        "lat": 42.273465976,
        "lon": -71.830887676,
        "wikidata": "Q111823867",
        "label": "Coffee Kingdom",
        "streetAddress": "2 Richmond Ave, Worcester, MA 01602",
        "dissolutionYear": ""
    }
    
    ,{
        
        "lat": 42.345460108,
        "lon": -71.081066987,
        "wikidata": "Q111823869",
        "label": "Colonnade Hotel",
        "streetAddress": "120 Huntington Ave, Boston, MA 02116",
        "dissolutionYear": ""
    }
    
    ,{
        
        "lat": 42.36369851,
        "lon": -71.061286043,
        "wikidata": "Q111823870",
        "label": "Commonwealth Brewing Company",
        "streetAddress": "138 Portland St, Boston, MA 02114",
        "dissolutionYear": ""
    }
    
    ,{
        
        "lat": 42.349288017,
        "lon": -71.079801517,
        "wikidata": "Q111823871",
        "label": "Diamond Jim&#39;s Piano Bar (Lenox Hotel)",
        "streetAddress": "710 Boylston St., Boston, MA 02116",
        "dissolutionYear": ""
    }
    
    ,{
        
        "lat": 42.333155952,
        "lon": -71.108029594,
        "wikidata": "Q111823872",
        "label": "Ed Burke&#39;s",
        "streetAddress": "808 Huntington Ave, Boston, MA 02115",
        "dissolutionYear": "1993"
    }
    
    ,{
        
        "lat": 42.54120032,
        "lon": -71.285941719,
        "wikidata": "Q111823873",
        "label": "Edible Rex",
        "streetAddress": "251 Old Concord Rd, Billerica, MA 01821",
        "dissolutionYear": ""
    }
    
    ,{
        
        "lat": 42.352152563,
        "lon": -71.068295258,
        "wikidata": "Q111823874",
        "label": "Four Seasons Hotel",
        "streetAddress": "200 Boylston St, Boston, MA 02116",
        "dissolutionYear": ""
    }
    
    ,{
        
        "lat": 42.255953833,
        "lon": -71.812040565,
        "wikidata": "Q111823875",
        "label": "Gilrein&#39;s",
        "streetAddress": "802 Main St, Worcester, MA 01610",
        "dissolutionYear": ""
    }
    
    ,{
        
        "lat": 42.310789719,
        "lon": -71.108042554,
        "wikidata": "Q111823876",
        "label": "Green Street Station",
        "streetAddress": "131 Green St, Jamaica Plain, MA 02130",
        "dissolutionYear": ""
    }
    
    ,{
        
        "lat": 42.558120664,
        "lon": -70.881343076,
        "wikidata": "Q111823877",
        "label": "Grover&#39;s",
        "streetAddress": "392 Cabot St, Beverly, MA 01915",
        "dissolutionYear": ""
    }
    
    ,{
        
        "lat": 42.354066875,
        "lon": -71.06222587,
        "wikidata": "Q111823878",
        "label": "Hub Club",
        "streetAddress": "533 Washington St, Boston, MA 02111",
        "dissolutionYear": ""
    }
    
    ,{
        
        "lat": 42.403222912,
        "lon": -71.126767533,
        "wikidata": "Q111823879",
        "label": "Jumbo&#39;s",
        "streetAddress": "1133 Broadway, Somerville, MA 02144",
        "dissolutionYear": ""
    }
    
    ,{
        
        "lat": 42.353552844,
        "lon": -71.060951309,
        "wikidata": "Q111823880",
        "label": "Lafayette Hotel",
        "streetAddress": "1 Ave de Lafayette, Boston, MA 02111",
        "dissolutionYear": ""
    }
    
    ,{
        
        "lat": 42.3675117,
        "lon": -71.02294505,
        "wikidata": "Q111823881",
        "label": "Logan Airport Hilton",
        "streetAddress": "One Hotel Dr, Boston, MA 02128",
        "dissolutionYear": ""
    }
    
    ,{
        
        "lat": 42.428541593,
        "lon": -71.01545726,
        "wikidata": "Q111823882",
        "label": "Misty&#39;s",
        "streetAddress": "407 Squire Rd, Revere, MA 02151",
        "dissolutionYear": ""
    }
    
    ,{
        
        "lat": 42.349727986,
        "lon": -71.050441207,
        "wikidata": "Q111823883",
        "label": "Necco Place",
        "streetAddress": "1 Necco St, Boston, MA 02210",
        "dissolutionYear": ""
    }
    
    ,{
        
        "lat": 42.474361156,
        "lon": -70.957369956,
        "wikidata": "Q111823884",
        "label": "New World",
        "streetAddress": "31 Stetson St, Lynn, MA 01904",
        "dissolutionYear": ""
    }
    
    ,{
        
        "lat": 42.363433806,
        "lon": -71.097755181,
        "wikidata": "Q111823885",
        "label": "Nightstage",
        "streetAddress": "823 Main St, Cambridge, MA 02139",
        "dissolutionYear": "1993"
    }
    
    ,{
        
        "lat": 42.268896667,
        "lon": -71.612173966,
        "wikidata": "Q111823886",
        "label": "Old Vienna Kaffeehaus",
        "streetAddress": "22 South St, Westborough, MA 01581",
        "dissolutionYear": ""
    }
    
    ,{
        
        "lat": 42.341589256,
        "lon": -71.122409049,
        "wikidata": "Q111823887",
        "label": "Papillon",
        "streetAddress": "1353 Beacon St, Brookline, MA 02446",
        "dissolutionYear": ""
    }
    
    ,{
        
        "lat": 42.349963271,
        "lon": -71.065653333,
        "wikidata": "Q111823888",
        "label": "Roxy",
        "streetAddress": "279 Tremont St, Boston, MA 02116",
        "dissolutionYear": "2010"
    }
    
    ,{
        
        "lat": 42.38061426,
        "lon": -71.097540425,
        "wikidata": "Q111823889",
        "label": "Sir Franco&#39;s",
        "streetAddress": "321 Somerville Ave, Somerville, MA 02143",
        "dissolutionYear": ""
    }
    
    ,{
        
        "lat": 42.257809234,
        "lon": -71.798322769,
        "wikidata": "Q111823890",
        "label": "Sir Morgan&#39;s Cove",
        "streetAddress": "89 Green St, Worcester, MA 01604",
        "dissolutionYear": "1999"
    }
    
    ,{
        
        "lat": 42.430998553,
        "lon": -71.459109902,
        "wikidata": "Q111823891",
        "label": "Sit &#39;n Bull Pub",
        "streetAddress": "163 Main St, Maynard, MA 01754",
        "dissolutionYear": ""
    }
    
    ,{
        
        "lat": 42.389263861,
        "lon": -71.120330831,
        "wikidata": "Q111823893",
        "label": "The Averof",
        "streetAddress": "1924 Massachusetts Ave, Cambridge, MA 02140",
        "dissolutionYear": "1998"
    }
    
    ,{
        
        "lat": 42.209376888,
        "lon": -71.552092312,
        "wikidata": "Q111823894",
        "label": "The Sticky Wicket",
        "streetAddress": "167 W Main St, Hopkinton, MA 01748",
        "dissolutionYear": ""
    }
    
    ,{
        
        "lat": 42.339349543,
        "lon": -71.136644018,
        "wikidata": "Q111823895",
        "label": "The Tam",
        "streetAddress": "1648 Beacon St, Brookline, MA 02445",
        "dissolutionYear": "1990"
    }
    
    ,{
        
        "lat": 42.364338103,
        "lon": -71.260898866,
        "wikidata": "Q111823896",
        "label": "WBRS/The Joint",
        "streetAddress": "415 South St, Waltham, MA 02453",
        "dissolutionYear": ""
    }
    
    ,{
        
        "lat": 42.36471347,
        "lon": -71.114114301,
        "wikidata": "Q111823897",
        "label": "Western Front",
        "streetAddress": "343 Western Ave, Cambridge, MA 02139",
        "dissolutionYear": "2013"
    }
    
    ,{
        
        "lat": 42.34832139,
        "lon": -71.077461159,
        "wikidata": "Q111823898",
        "label": "Westin Hotel",
        "streetAddress": "10 Huntington Ave, Boston, MA 02116",
        "dissolutionYear": ""
    }
    
    ,{
        
        "lat": 42.400000864,
        "lon": -71.1120773,
        "wikidata": "Q111823899",
        "label": "Willow Jazz Club",
        "streetAddress": "699 Broadway, Somerville, MA 02144",
        "dissolutionYear": "1997"
    }
    
    ,{
        
        "lat": 42.333829176,
        "lon": -71.103375545,
        "wikidata": "Q111823900",
        "label": "Winnie&#39;s Pub",
        "streetAddress": "1619 Tremont St, Boston, MA 02120",
        "dissolutionYear": ""
    }
    
    ,{
        
        "lat": 42.346207671,
        "lon": -71.099350727,
        "wikidata": "Q111823902",
        "label": "Copperfields",
        "streetAddress": "98 Brookline Ave, Boston, MA 02215",
        "dissolutionYear": "2015"
    }
    
    ,{
        
        "lat": 42.3740762,
        "lon": -71.120629,
        "wikidata": "Q112117387",
        "label": "The Sinclair",
        "streetAddress": "52 Church St, Cambridge, MA 02138",
        "dissolutionYear": ""
    }
    
    ,{
        
        "lat": 42.396767748,
        "lon": -71.122916773,
        "wikidata": "Q112118406",
        "label": "Crystal Ballroom",
        "streetAddress": "55 Davis Square, Somerville, MA 02144",
        "dissolutionYear": ""
    }
    
    ,{
        
        "lat": 42.39522,
        "lon": -71.12158,
        "wikidata": "Q112199961",
        "label": "The Burren",
        "streetAddress": "247 Elm St, Somerville, MA 02144",
        "dissolutionYear": ""
    }
    
    ,{
        
        "lat": 42.352922156,
        "lon": -71.132586748,
        "wikidata": "Q112278400",
        "label": "Brighton Music Hall",
        "streetAddress": "158 Brighton Ave, Allston, MA 02134",
        "dissolutionYear": ""
    }
    
    ,{
        
        "lat": 42.35697184,
        "lon": -71.144877621,
        "wikidata": "Q112286122",
        "label": "Roadrunner",
        "streetAddress": "89 Guest St, Boston, MA 02135",
        "dissolutionYear": ""
    }
    
    ,{
        
        "lat": 42.277583389,
        "lon": -71.80106959,
        "wikidata": "Q112306268",
        "label": "Ralph&#39;s Rock Diner",
        "streetAddress": "148 Grove St, Worcester, MA 01605",
        "dissolutionYear": ""
    }
    
    ,{
        
        "lat": 42.3726221,
        "lon": -71.0915662,
        "wikidata": "Q112661379",
        "label": "Atwood&#39;s Tavern",
        "streetAddress": "877 Cambridge St, Cambridge, MA, 02141",
        "dissolutionYear": ""
    }
    
    ,{
        
        "lat": 42.364606008,
        "lon": -71.104323554,
        "wikidata": "Q113453820",
        "label": "1359 Jazz Club",
        "streetAddress": "288B Green St, Cambridge, MA 02139",
        "dissolutionYear": ""
    }
    
    ,{
        
        "lat": 42.358253644,
        "lon": -71.053224126,
        "wikidata": "Q113453821",
        "label": "An Tain",
        "streetAddress": "31 India St, Boston, MA 02109",
        "dissolutionYear": "2020"
    }
    
    ,{
        
        "lat": 42.346928456,
        "lon": -71.10289611,
        "wikidata": "Q113453822",
        "label": "An Tua Nua",
        "streetAddress": "835 Beacon St, Boston, MA 02215",
        "dissolutionYear": "2013"
    }
    
    ,{
        
        "lat": 42.350731428,
        "lon": -71.064728387,
        "wikidata": "Q113453823",
        "label": "Aria",
        "streetAddress": "246 Tremont St, Boston, MA 02116",
        "dissolutionYear": ""
    }
    
    ,{
        
        "lat": 42.347300057,
        "lon": -71.094809273,
        "wikidata": "Q113453824",
        "label": "Atlas Dance",
        "streetAddress": "3 Lansdowne St, Boston, MA 02215",
        "dissolutionYear": ""
    }
    
    ,{
        
        "lat": 42.351813372,
        "lon": -71.066173335,
        "wikidata": "Q113453825",
        "label": "Avenue C",
        "streetAddress": "5 Boylston Pl, Boston, MA 02116",
        "dissolutionYear": ""
    }
    
    ,{
        
        "lat": 42.353556266,
        "lon": -71.060951454,
        "wikidata": "Q113453826",
        "label": "Avenue One Lounge",
        "streetAddress": "1 Ave de Lafayette, Boston, MA 02111",
        "dissolutionYear": ""
    }
    
    ,{
        
        "lat": 42.344495487,
        "lon": -71.071497404,
        "wikidata": "Q113453827",
        "label": "Beehive",
        "streetAddress": "541 Tremont St, Boston, MA 02116",
        "dissolutionYear": ""
    }
    
    ,{
        
        "lat": 42.322016356,
        "lon": -71.109340232,
        "wikidata": "Q113453828",
        "label": "Brendan Behan Pub",
        "streetAddress": "378 Centre St, Jamaica Plain, MA 02130",
        "dissolutionYear": ""
    }
    
    ,{
        
        "lat": 42.364517932,
        "lon": -71.061732196,
        "wikidata": "Q113453831",
        "label": "Buck&#39;s American Bar and Grill",
        "streetAddress": "197 Portland St, Boston, MA 02114",
        "dissolutionYear": ""
    }
    
    ,{
        
        "lat": 42.584366416,
        "lon": -71.646400027,
        "wikidata": "Q113453832",
        "label": "Bull Run Restaurant",
        "streetAddress": "215 Great Rd, Shirley, MA 01464",
        "dissolutionYear": ""
    }
    
    ,{
        
        "lat": 42.360615033,
        "lon": -71.44794341,
        "wikidata": "Q113453833",
        "label": "Bullfinch&#39;s",
        "streetAddress": "730 Boston Post Rd, Sudbury, MA 01776",
        "dissolutionYear": ""
    }
    
    ,{
        
        "lat": 42.348174826,
        "lon": -71.084998431,
        "wikidata": "Q113453834",
        "label": "Cafe 939",
        "streetAddress": "939 Boylston St, Boston, MA 02115",
        "dissolutionYear": ""
    }
    
    ,{
        
        "lat": 42.366365354,
        "lon": -71.091169765,
        "wikidata": "Q113453835",
        "label": "Cambridge Brewing Company",
        "streetAddress": "1 Kendall Square Bldg 100, Cambridge, MA 02139",
        "dissolutionYear": ""
    }
    
    ,{
        
        "lat": 42.366114231,
        "lon": -71.105308097,
        "wikidata": "Q113453836",
        "label": "Cantab Lounge",
        "streetAddress": "738 Massachusetts Ave, Cambridge, MA 02139",
        "dissolutionYear": ""
    }
    
    ,{
        
        "lat": 42.364481747,
        "lon": -71.062619994,
        "wikidata": "Q113453837",
        "label": "Causeway",
        "streetAddress": "65 Causeway St, Boston, MA 02114",
        "dissolutionYear": ""
    }
    
    ,{
        
        "lat": 42.364549568,
        "lon": -71.061453616,
        "wikidata": "Q113453838",
        "label": "Chameleon",
        "streetAddress": "262 Friend St, Boston, MA 02114",
        "dissolutionYear": ""
    }
    
    ,{
        
        "lat": 42.378393699,
        "lon": -71.106836294,
        "wikidata": "Q113453839",
        "label": "Club Bohemia at the Kirkland Cafe",
        "streetAddress": "425 Washington St, Cambridge, MA 02138",
        "dissolutionYear": "2007"
    }
    
    ,{
        
        "lat": 42.353498136,
        "lon": -71.132449947,
        "wikidata": "Q113453841",
        "label": "Common Ground",
        "streetAddress": "83-87 Harvard Ave, Allston, MA 02134",
        "dissolutionYear": "2019"
    }
    
    ,{
        
        "lat": 42.33981143,
        "lon": -71.082515232,
        "wikidata": "Q113453842",
        "label": "Darryl&#39;s Corner Bar &amp; Kitchen",
        "streetAddress": "604 Columbus Ave, Boston, MA 02118",
        "dissolutionYear": ""
    }
    
    ,{
        
        "lat": 42.381621609,
        "lon": -71.100060702,
        "wikidata": "Q113690967",
        "label": "Thunder Road Music Club",
        "streetAddress": "379 Somerville Ave, Somerville, MA 02143",
        "dissolutionYear": "2020"
    }
    
    ,{
        
        "lat": 42.34999373,
        "lon": -71.065553882,
        "wikidata": "Q115096421",
        "label": "Royale",
        "streetAddress": "279 Tremont St, Boston, MA 02116",
        "dissolutionYear": ""
    }
    
    ,{
        
        "lat": 42.363562,
        "lon": -71.101637,
        "wikidata": "Q115096454",
        "label": "Sonia",
        "streetAddress": "10 Brookline St, Cambridge MA 02139",
        "dissolutionYear": ""
    }
    
    ,{
        
        "lat": 42.349706566,
        "lon": -71.072489673,
        "wikidata": "Q115096488",
        "label": "John Hancock Hall",
        "streetAddress": "180 Berkeley St, Boston, MA 02116",
        "dissolutionYear": ""
    }
    
    ,{
        
        "lat": 42.380844873,
        "lon": -71.098317257,
        "wikidata": "Q115096556",
        "label": "Union Tavern",
        "streetAddress": "345 Somerville Avenue, Somerville, MA, 02143",
        "dissolutionYear": ""
    }
    
    ,{
        
        "lat": 42.373785385,
        "lon": -71.10037287,
        "wikidata": "Q115097408",
        "label": "1369 Jazz Club",
        "streetAddress": "1369 Cambridge St, Cambridge, MA 02139",
        "dissolutionYear": "1988"
    }
    
    ,{
        
        "lat": 42.3737379,
        "lon": -71.1001428,
        "wikidata": "Q115174008",
        "label": "Druid Pub",
        "streetAddress": "1357 Cambridge St, Cambridge, MA 02139",
        "dissolutionYear": ""
    }
    
    ,{
        
        "lat": 42.373736256,
        "lon": -71.100073451,
        "wikidata": "Q115174009",
        "label": "The Lilypad",
        "streetAddress": "1353 Cambridge St, Cambridge, MA 02139",
        "dissolutionYear": ""
    }
    
    ,{
        
        "lat": 42.388982096,
        "lon": -71.119933219,
        "wikidata": "Q115174010",
        "label": "Toad",
        "streetAddress": "1912 Massachusetts Ave, Cambridge, MA 02140",
        "dissolutionYear": ""
    }
    
    ,{
        
        "lat": 42.306254553,
        "lon": -71.107573277,
        "wikidata": "Q115174013",
        "label": "Midway Cafe",
        "streetAddress": "3496 Washington St, Boston, MA 02130",
        "dissolutionYear": ""
    }
    
    ,{
        
        "lat": 42.365860396,
        "lon": -71.061301546,
        "wikidata": "Q115219971",
        "label": "Big Night Live",
        "streetAddress": "110 Causeway St, Boston, MA 02114",
        "dissolutionYear": ""
    }
    
    ,{
        
        "lat": 42.419636071,
        "lon": -71.109255694,
        "wikidata": "Q115227398",
        "label": "Chevalier Theater",
        "streetAddress": "30 Forest St, Medford, MA 02155",
        "dissolutionYear": ""
    }
    
    ,{
        
        "lat": 42.364383585,
        "lon": -71.058646365,
        "wikidata": "Q115247867",
        "label": "City Winery",
        "streetAddress": "80 Beverly St, Boston, MA 02114",
        "dissolutionYear": ""
    }
    
    ,{
        
        "lat": 42.299881796,
        "lon": -71.060080995,
        "wikidata": "Q115247885",
        "label": "Dorchester Art Project",
        "streetAddress": "1486 Dorchester Ave, Dorchester, MA 02122",
        "dissolutionYear": ""
    }
    
    ,{
        
        "lat": 41.635046415,
        "lon": -70.926092537,
        "wikidata": "Q115247934",
        "label": "The Vault Music Hall",
        "streetAddress": "791 Purchase St, New Bedford, MA 02740",
        "dissolutionYear": "2022"
    }
    
    ,{
        
        "lat": 42.364916646,
        "lon": -71.100400082,
        "wikidata": "Q115247977",
        "label": "Cambridge Elks Lodge",
        "streetAddress": "55 Bishop Allen Dr, Cambridge, MA 02139",
        "dissolutionYear": ""
    }
    
    ,{
        
        "lat": 42.347403455,
        "lon": -71.095696701,
        "wikidata": "Q115304144",
        "label": "House of Blues",
        "streetAddress": "15 Lansdowne St, Boston, MA 02215",
        "dissolutionYear": ""
    }
    
    ,{
        
        "lat": 42.388298207,
        "lon": -71.103804839,
        "wikidata": "Q115304753",
        "label": "Once",
        "streetAddress": "156 Highland Ave, Somerville, MA 02143",
        "dissolutionYear": "2020"
    }
    
    ,{
        
        "lat": 42.52201504,
        "lon": -70.895566027,
        "wikidata": "Q115305420",
        "label": "Opus Underground",
        "streetAddress": "87 Washington St, Salem, MA 01970",
        "dissolutionYear": "2022"
    }
    
    ,{
        
        "lat": 42.409969651,
        "lon": -71.075481901,
        "wikidata": "Q115305543",
        "label": "The Porch",
        "streetAddress": "175 Rivers Edge Dr, Medford, MA 02155",
        "dissolutionYear": ""
    }
    
    ,{
        
        "lat": 42.361812125,
        "lon": -71.144610183,
        "wikidata": "Q115328484",
        "label": "Notch Brewery &amp; Tap Room",
        "streetAddress": "525 Western Ave, Brighton, MA 02135",
        "dissolutionYear": ""
    }
    
    ,{
        
        "lat": 42.395547518,
        "lon": -71.121692657,
        "wikidata": "Q115558989",
        "label": "The Rockwell",
        "streetAddress": "255 Elm St, Somerville, MA 02144",
        "dissolutionYear": ""
    }
    
    ,{
        
        "lat": 42.286764022,
        "lon": -71.130512095,
        "wikidata": "Q115767965",
        "label": "The Square Root",
        "streetAddress": "2 Corinth St, Boston, MA 02131",
        "dissolutionYear": ""
    }
    
    ,{
        
        "lat": 42.382211442,
        "lon": -71.079380874,
        "wikidata": "Q115768003",
        "label": "Tavern at the End of the World",
        "streetAddress": "108 Cambridge St, Charlestown, MA 02129",
        "dissolutionYear": ""
    }
    
    ,{
        
        "lat": 42.380782479,
        "lon": -71.097999831,
        "wikidata": "Q115977835",
        "label": "Sally O&#39;Briens",
        "streetAddress": "335 Somerville Ave, Somerville, MA 02143",
        "dissolutionYear": ""
    }
    
    ,{
        
        "lat": 42.363696901,
        "lon": -71.101584629,
        "wikidata": "Q115977886",
        "label": "Middle East Downstairs",
        "streetAddress": "472 Massachusetts Ave, Cambridge, MA 02139",
        "dissolutionYear": ""
    }
    
    ,{
        
        "lat": 42.363696901,
        "lon": -71.101584629,
        "wikidata": "Q115977928",
        "label": "Middle East Upstairs",
        "streetAddress": "472 Massachusetts Ave, Cambridge, MA 02139",
        "dissolutionYear": ""
    }
    
    ,{
        
        "lat": 42.363778008,
        "lon": -71.101445483,
        "wikidata": "Q115977940",
        "label": "ZuZu",
        "streetAddress": "474 Massachusetts Ave, Cambridge, MA 02139",
        "dissolutionYear": ""
    }
    
    ,{
        
        "lat": 42.426664476,
        "lon": -71.068566202,
        "wikidata": "Q115977953",
        "label": "Faces Brewing Co.",
        "streetAddress": "50 Pleasant St, Malden, MA 02148",
        "dissolutionYear": ""
    }
    
    ,{
        
        "lat": 42.353109673,
        "lon": -71.134407232,
        "wikidata": "Q116153493",
        "label": "The Silhouette Lounge",
        "streetAddress": "200 Brighton Ave, Allston, MA 02134",
        "dissolutionYear": ""
    }
    
    ,{
        
        "lat": 42.366069184,
        "lon": -71.103313181,
        "wikidata": "Q116355864",
        "label": "ManRay",
        "streetAddress": "40 Prospect Street, Cambridge, MA 02139",
        "dissolutionYear": ""
    }
    
    ,{
        
        "lat": 42.292128319,
        "lon": -71.040807754,
        "wikidata": "Q116811573",
        "label": "Boston Harbor Distillery",
        "streetAddress": "12R Ericsson St, Dorchester, MA 02122",
        "dissolutionYear": ""
    }
    
    ,{
        
        "lat": 42.381620003,
        "lon": -71.100062425,
        "wikidata": "Q116811643",
        "label": "Jaspers",
        "streetAddress": "379 Somerville Ave, Somerville, MA 02143",
        "dissolutionYear": "1983"
    }
    
    ,{
        
        "lat": 42.381620003,
        "lon": -71.100062425,
        "wikidata": "Q116811671",
        "label": "Club Choices",
        "streetAddress": "379 Somerville Ave, Somerville, MA 02143",
        "dissolutionYear": "2011"
    }
    
    ,{
        
        "lat": 42.381620003,
        "lon": -71.100062425,
        "wikidata": "Q116811696",
        "label": "Radio Bar",
        "streetAddress": "379 Somerville Ave, Somerville, MA 02143",
        "dissolutionYear": "2013"
    }
    
    ,{
        
        "lat": 42.3525,
        "lon": -71.0626,
        "wikidata": "Q12067361",
        "label": "RKO-Boston",
        "streetAddress": "616 Washington St, Boston, MA 02111",
        "dissolutionYear": ""
    }
    
    ,{
        
        "lat": 42.3562,
        "lon": -71.0608,
        "wikidata": "Q14715412",
        "label": "Boston Music Hall",
        "streetAddress": "",
        "dissolutionYear": ""
    }
    
    ,{
        
        "lat": 42.3725,
        "lon": -71.1215,
        "wikidata": "Q14715437",
        "label": "Charlie&#39;s Kitchen",
        "streetAddress": "10 Eliot St, Cambridge, MA 02138",
        "dissolutionYear": ""
    }
    
    ,{
        
        "lat": 42.4647,
        "lon": -70.9517,
        "wikidata": "Q14715685",
        "label": "Lynn Memorial City Hall and Auditorium",
        "streetAddress": "3 City Hall Square, Lynn, MA 01901",
        "dissolutionYear": ""
    }
    
    ,{
        
        "lat": 42.3745,
        "lon": -71.1193,
        "wikidata": "Q14715739",
        "label": "Nameless Coffeehouse",
        "streetAddress": "1151 Massachusetts Ave, Cambridge, MA 02138",
        "dissolutionYear": ""
    }
    
    ,{
        
        "lat": 42.3515,
        "lon": -71.1249,
        "wikidata": "Q14715879",
        "label": "The Underground (Boston)",
        "streetAddress": "1110 Commonwealth Ave, Brookline, MA 02215",
        "dissolutionYear": "1981"
    }
    
    ,{
        
        "lat": 42.349166666,
        "lon": -73.31,
        "wikidata": "Q1528686",
        "label": "Tanglewood",
        "streetAddress": "",
        "dissolutionYear": ""
    }
    
    ,{
        
        "lat": 42.284,
        "lon": -71.348,
        "wikidata": "Q17060181",
        "label": "The Center for Arts in Natick",
        "streetAddress": "14 Summer St, Natick, MA 01760, USA",
        "dissolutionYear": ""
    }
    
    ,{
        
        "lat": 42.4149,
        "lon": -71.1508,
        "wikidata": "Q17066294",
        "label": "Regent Theatre",
        "streetAddress": "7 Medford Street, Arlington, MA 02474",
        "dissolutionYear": ""
    }
    
    ,{
        
        "lat": 42.36,
        "lon": -71.1186,
        "wikidata": "Q18356284",
        "label": "Scullers Jazz Club",
        "streetAddress": "400 Soldiers Field Rd., Boston, MA 02134",
        "dissolutionYear": ""
    }
    
    ,{
        
        "lat": 42.352,
        "lon": -71.062,
        "wikidata": "Q18706207",
        "label": "Izzy Ort&#39;s Bar &amp; Grille",
        "streetAddress": "",
        "dissolutionYear": "1969"
    }
    
    ,{
        
        "lat": 42.352361111,
        "lon": -71.061861111,
        "wikidata": "Q21016114",
        "label": "Playland Café",
        "streetAddress": "",
        "dissolutionYear": ""
    }
    
    ,{
        
        "lat": 42.3635,
        "lon": -71.10163889,
        "wikidata": "Q22059572",
        "label": "T.T. the Bear&#39;s Place",
        "streetAddress": "10 Brookline St, Cambridge, MA 02139",
        "dissolutionYear": "2015"
    }
    
    ,{
        
        "lat": 42.34738,
        "lon": -73.30619,
        "wikidata": "Q2266700",
        "label": "Seiji Ozawa Hall",
        "streetAddress": "",
        "dissolutionYear": ""
    }
    
    ,{
        
        "lat": 42.349,
        "lon": -71.1,
        "wikidata": "Q23018403",
        "label": "The Psychedelic Supermarket",
        "streetAddress": "590 Commonwealth Ave., Boston, MA 02215",
        "dissolutionYear": "1969"
    }
    
    ,{
        
        "lat": 42.3482,
        "lon": -71.0787,
        "wikidata": "Q2352319",
        "label": "Storyville",
        "streetAddress": "",
        "dissolutionYear": ""
    }
    
    ,{
        
        "lat": 42.372203,
        "lon": -71.1228944,
        "wikidata": "Q26882947",
        "label": "Regattabar",
        "streetAddress": "1 Bennett St, Cambridge, MA 02138",
        "dissolutionYear": ""
    }
    
    ,{
        
        "lat": 42.342594,
        "lon": -71.085806,
        "wikidata": "Q3045309",
        "label": "Symphony Hall",
        "streetAddress": "",
        "dissolutionYear": ""
    }
    
    ,{
        
        "lat": 42.206709,
        "lon": -72.605649,
        "wikidata": "Q42714399",
        "label": "E.M. Loew&#39;s State Theatre",
        "streetAddress": "461 Dwight Street, Holyoke, MA 01040",
        "dissolutionYear": "1967"
    }
    
    ,{
        
        "lat": 42.366302777,
        "lon": -71.062227777,
        "wikidata": "Q432105",
        "label": "TD Garden",
        "streetAddress": "100 Legends Way, Boston, MA 02114",
        "dissolutionYear": ""
    }
    
    ,{
        
        "lat": 42.3744,
        "lon": -71.1017,
        "wikidata": "Q4664036",
        "label": "Abbey Lounge",
        "streetAddress": "3 Beacon St, Somerville, MA 02143",
        "dissolutionYear": "2008"
    }
    
    ,{
        
        "lat": 42.3486,
        "lon": -71.0369,
        "wikidata": "Q4856037",
        "label": "Leader Bank Pavilion",
        "streetAddress": "290 Northern Ave, Boston, MA 02210",
        "dissolutionYear": ""
    }
    
    ,{
        
        "lat": 41.654,
        "lon": -70.3204,
        "wikidata": "Q4861955",
        "label": "Barnstable High School Performing Arts Center",
        "streetAddress": "744 W Main St, Hyannis, MA 02601",
        "dissolutionYear": ""
    }
    
    ,{
        
        "lat": 42.3527,
        "lon": -71.0626,
        "wikidata": "Q4880183",
        "label": "Beethoven Hall",
        "streetAddress": "",
        "dissolutionYear": ""
    }
    
    ,{
        
        "lat": 42.347,
        "lon": -71.0876,
        "wikidata": "Q4892165",
        "label": "Berklee Performance Center",
        "streetAddress": "136 Massachusetts Avenue, Boston, MA 02115",
        "dissolutionYear": ""
    }
    
    ,{
        
        "lat": 42.3405,
        "lon": -71.0896,
        "wikidata": "Q4948013",
        "label": "Boston Opera House",
        "streetAddress": "343 Huntington Avenue, Boston, MA 02115",
        "dissolutionYear": "1957"
    }
    
    ,{
        
        "lat": 42.3542,
        "lon": -71.0627,
        "wikidata": "Q4948014",
        "label": "Boston Opera House",
        "streetAddress": "539 Washington Street, Boston, MA 02111",
        "dissolutionYear": "1990"
    }
    
    ,{
        
        "lat": 42.3464,
        "lon": -71.0707,
        "wikidata": "Q4948138",
        "label": "Boston Tea Party",
        "streetAddress": "53 Berkeley Street Boston, MA 02116",
        "dissolutionYear": "1970"
    }
    
    ,{
        
        "lat": 42.5514,
        "lon": -70.8788,
        "wikidata": "Q5015785",
        "label": "Cabot Street Cinema Theatre",
        "streetAddress": "286 Cabot Street, Beverly, MA 1915",
        "dissolutionYear": ""
    }
    
    ,{
        
        "lat": 41.69,
        "lon": -70.1962,
        "wikidata": "Q5034679",
        "label": "Cape Cod Coliseum",
        "streetAddress": "",
        "dissolutionYear": "1984"
    }
    
    ,{
        
        "lat": 42.3545,
        "lon": -71.0637,
        "wikidata": "Q5096353",
        "label": "Chickering Hall",
        "streetAddress": "",
        "dissolutionYear": ""
    }
    
    ,{
        
        "lat": 42.3437,
        "lon": -71.0845,
        "wikidata": "Q5096355",
        "label": "Chickering Hall, Boston",
        "streetAddress": "",
        "dissolutionYear": "1912"
    }
    
    ,{
        
        "lat": 42.3604,
        "lon": -71.0603,
        "wikidata": "Q5158499",
        "label": "Concert Hall (Boston)",
        "streetAddress": "",
        "dissolutionYear": "1869"
    }
    
    ,{
        
        "lat": 42.347,
        "lon": -71.0876,
        "wikidata": "Q5443666",
        "label": "Fenway Theatre",
        "streetAddress": "",
        "dissolutionYear": "1972"
    }
    
    ,{
        
        "lat": 42.3514,
        "lon": -71.0565,
        "wikidata": "Q5518987",
        "label": "Gallery East",
        "streetAddress": "",
        "dissolutionYear": ""
    }
    
    ,{
        
        "lat": 42.3538,
        "lon": -71.1326,
        "wikidata": "Q5663489",
        "label": "Harpers Ferry",
        "streetAddress": "158 Brighton Ave, Allston, MA 02134",
        "dissolutionYear": "2010"
    }
    
    ,{
        
        "lat": 42.3573,
        "lon": -71.0737,
        "wikidata": "Q5681035",
        "label": "Hatch Memorial Shell",
        "streetAddress": "47 David G. Mugar Way, Boston, MA 02108",
        "dissolutionYear": ""
    }
    
    ,{
        
        "lat": 42.3191,
        "lon": -72.6317,
        "wikidata": "Q6072603",
        "label": "Iron Horse Music Hall",
        "streetAddress": "20 Center Street, Northampton, MA 01060",
        "dissolutionYear": ""
    }
    
    ,{
        
        "lat": 42.347062,
        "lon": -71.09688,
        "wikidata": "Q60746182",
        "label": "MGM Music Hall at Fenway",
        "streetAddress": "2 Lansdowne St, Boston, MA 02215",
        "dissolutionYear": ""
    }
    
    ,{
        
        "lat": 42.341111,
        "lon": -71.086389,
        "wikidata": "Q6276585",
        "label": "Jordan Hall",
        "streetAddress": "",
        "dissolutionYear": ""
    }
    
    ,{
        
        "lat": 42.3821,
        "lon": -71.1195,
        "wikidata": "Q6660525",
        "label": "Lizard Lounge",
        "streetAddress": "1667 Massachusetts Ave, Cambridge, MA 02138",
        "dissolutionYear": ""
    }
    
    ,{
        
        "lat": 42.3633,
        "lon": -71.1022,
        "wikidata": "Q6751526",
        "label": "Manray",
        "streetAddress": "21 Brookline St, Cambridge, MA 02139",
        "dissolutionYear": "2005"
    }
    
    ,{
        
        "lat": 42.3543,
        "lon": -71.0623,
        "wikidata": "Q6813287",
        "label": "Melodeon",
        "streetAddress": "",
        "dissolutionYear": ""
    }
    
    ,{
        
        "lat": 42.3555,
        "lon": -71.0565,
        "wikidata": "Q7077675",
        "label": "Odeon",
        "streetAddress": "",
        "dissolutionYear": ""
    }
    
    ,{
        
        "lat": 42.3808,
        "lon": -71.0982,
        "wikidata": "Q7116947",
        "label": "P.A.&#39;s Lounge",
        "streetAddress": "345 Somerville Avenue, Somerville, MA 02143",
        "dissolutionYear": "2018"
    }
    
    ,{
        
        "lat": 42.3518676,
        "lon": -71.1194234,
        "wikidata": "Q7134354",
        "label": "Paradise Rock Club",
        "streetAddress": "967 Commonwealth Ave, Boston, MA 02215",
        "dissolutionYear": ""
    }
    
    ,{
        
        "lat": 42.3486,
        "lon": -71.0961,
        "wikidata": "Q723403",
        "label": "The Rathskeller",
        "streetAddress": "528 Commonwealth Ave, Boston, MA 02215",
        "dissolutionYear": "2000"
    }
    
    ,{
        
        "lat": 42.3731,
        "lon": -71.1003,
        "wikidata": "Q7385172",
        "label": "Ryles Jazz Club",
        "streetAddress": "212 Hampshire St., Cambridge, MA 02139",
        "dissolutionYear": "2018"
    }
    
    ,{
        
        "lat": 42.39676286,
        "lon": -71.12287903,
        "wikidata": "Q7559987",
        "label": "Somerville Theatre",
        "streetAddress": "55 Davis Square, Somerville, MA 02144",
        "dissolutionYear": ""
    }
    
    ,{
        
        "lat": 42.3524,
        "lon": -71.0668,
        "wikidata": "Q7606868",
        "label": "Steinert Hall, Boston",
        "streetAddress": "162 Boylston St, Boston, MA 02116",
        "dissolutionYear": ""
    }
    
    ,{
        
        "lat": 42.3544,
        "lon": -71.0626,
        "wikidata": "Q7719463",
        "label": "Boston Theatre",
        "streetAddress": "539 Washington Street, Boston, MA",
        "dissolutionYear": ""
    }
    
    ,{
        
        "lat": 42.3486,
        "lon": -71.0519,
        "wikidata": "Q7722107",
        "label": "The Channel",
        "streetAddress": "25 Necco Street Boston, MA 02210",
        "dissolutionYear": "1993"
    }
    
    ,{
        
        "lat": 42.3638,
        "lon": -71.1014,
        "wikidata": "Q7751278",
        "label": "The Middle East",
        "streetAddress": "472 Massachusetts Ave, Cambridge, MA 02139",
        "dissolutionYear": ""
    }
    
    ,{
        
        "lat": 42.3683,
        "lon": -71.1087,
        "wikidata": "Q7757526",
        "label": "The Plough and Stars",
        "streetAddress": "912 Massachusetts Ave. Cambridge, MA 02139",
        "dissolutionYear": ""
    }
    
    ,{
        
        "lat": 42.27325,
        "lon": -71.801278,
        "wikidata": "Q7851104",
        "label": "Tuckerman Hall",
        "streetAddress": "10 Tuckerman St, Worcester, MA 01609",
        "dissolutionYear": ""
    }
    
    ,{
        
        "lat": 42.3407,
        "lon": -71.0822,
        "wikidata": "Q7963274",
        "label": "Wally&#39;s Cafe",
        "streetAddress": "427 Massachusetts Ave,Boston, MA 02118",
        "dissolutionYear": ""
    }
    
    ,{
        
        "lat": 42.3123,
        "lon": -71.1135,
        "wikidata": "Q7996005",
        "label": "Whitehaus",
        "streetAddress": "10 Seaverns Ave, Jamaica Plain, MA 02130",
        "dissolutionYear": ""
    }
    
    ,{
        
        "lat": 42.350556,
        "lon": -71.065556,
        "wikidata": "Q8000245",
        "label": "Wilbur Theatre",
        "streetAddress": "246 Tremont St, Boston, MA 02116",
        "dissolutionYear": ""
    }
    
    ,{
        
        "lat": 42.2675,
        "lon": -71.016667,
        "wikidata": "Q8030324",
        "label": "Wollaston Theatre",
        "streetAddress": "14 Beale Street, Quincy, MA 02170",
        "dissolutionYear": "2016"
    }
    
    ,{
        
        "lat": 42.2667,
        "lon": -71.8008,
        "wikidata": "Q8034204",
        "label": "Worcester Palladium",
        "streetAddress": "261 Main St, Worcester, MA 01608",
        "dissolutionYear": ""
    }
    
    ,{
        
        "lat": 42.34839,
        "lon": -71.07247,
        "wikidata": "Q85753023",
        "label": "Club Café",
        "streetAddress": "209 Columbus Ave, Boston, MA 02116",
        "dissolutionYear": ""
    }
    
    ,{
        
        "lat": 42.365697222,
        "lon": -71.061716666,
        "wikidata": "Q894567",
        "label": "Boston Garden",
        "streetAddress": "150 Causeway Street, Boston, MA 02114",
        "dissolutionYear": "1998"
    }
    
    ,{
        
        "lat": 42.3562,
        "lon": -71.0608,
        "wikidata": "Q894568",
        "label": "Orpheum Theatre",
        "streetAddress": "1 Hamilton Place, Boston, MA 02108",
        "dissolutionYear": ""
    }
    
]